#Serial: 4800 7N2
$GPGGA,101020.737,5231.011,N,01323.164,E,1,12,1.0,0.0,M,0.0,M,,*6A
$GPGSA,A,3,01,02,03,04,05,06,07,08,09,10,11,12,1.0,1.0,1.0*30
$GPRMC,101020.737,A,5231.011,N,01323.164,E,375.3,085.8,021020,000.0,W*78
$GPGGA,101021.737,5231.023,N,01323.334,E,1,12,1.0,0.0,M,0.0,M,,*6D
$GPGSA,A,3,01,02,03,04,05,06,07,08,09,10,11,12,1.0,1.0,1.0*30
$GPRMC,101021.737,A,5231.023,N,01323.334,E,666.9,088.2,021020,000.0,W*75
$GPGGA,101022.737,5231.033,N,01323.638,E,1,12,1.0,0.0,M,0.0,M,,*66
$GPGSA,A,3,01,02,03,04,05,06,07,08,09,10,11,12,1.0,1.0,1.0*30
$GPRMC,101022.737,A,5231.033,N,01323.638,E,720.1,084.5,021020,000.0,W*7E
$GPGGA,101023.737,5231.064,N,01323.962,E,1,12,1.0,0.0,M,0.0,M,,*65
$GPGSA,A,3,01,02,03,04,05,06,07,08,09,10,11,12,1.0,1.0,1.0*30
$GPRMC,101023.737,A,5231.064,N,01323.962,E,588.8,068.7,021020,000.0,W*74
$GPGGA,101024.737,5231.152,N,01324.189,E,1,12,1.0,0.0,M,0.0,M,,*6C
$GPGSA,A,3,01,02,03,04,05,06,07,08,09,10,11,12,1.0,1.0,1.0*30
$GPRMC,101024.737,A,5231.152,N,01324.189,E,368.6,062.8,021020,000.0,W*7E
$GPGGA,101025.737,5231.218,N,01324.318,E,1,12,1.0,0.0,M,0.0,M,,*6A
$GPGSA,A,3,01,02,03,04,05,06,07,08,09,10,11,12,1.0,1.0,1.0*30
$GPRMC,101025.737,A,5231.218,N,01324.318,E,345.5,064.2,021020,000.0,W*78
$GPGGA,101026.737,5231.277,N,01324.441,E,1,12,1.0,0.0,M,0.0,M,,*6B
$GPGSA,A,3,01,02,03,04,05,06,07,08,09,10,11,12,1.0,1.0,1.0*30
$GPRMC,101026.737,A,5231.277,N,01324.441,E,449.5,063.8,021020,000.0,W*7F
$GPGGA,101027.737,5231.356,N,01324.601,E,1,12,1.0,0.0,M,0.0,M,,*6E
$GPGSA,A,3,01,02,03,04,05,06,07,08,09,10,11,12,1.0,1.0,1.0*30
$GPRMC,101027.737,A,5231.356,N,01324.601,E,399.1,058.6,021020,000.0,W*72
$GPGGA,101028.737,5231.434,N,01324.730,E,1,12,1.0,0.0,M,0.0,M,,*61
$GPGSA,A,3,01,02,03,04,05,06,07,08,09,10,11,12,1.0,1.0,1.0*30
$GPRMC,101028.737,A,5231.434,N,01324.730,E,563.6,111.4,021020,000.0,W*77
$GPGGA,101029.737,5231.349,N,01324.946,E,1,12,1.0,0.0,M,0.0,M,,*62
$GPGSA,A,3,01,02,03,04,05,06,07,08,09,10,11,12,1.0,1.0,1.0*30
$GPRMC,101029.737,A,5231.349,N,01324.946,E,210.0,129.8,021020,000.0,W*76
$GPGGA,101030.737,5231.302,N,01325.003,E,1,12,1.0,0.0,M,0.0,M,,*6C
$GPGSA,A,3,01,02,03,04,05,06,07,08,09,10,11,12,1.0,1.0,1.0*30
$GPRMC,101030.737,A,5231.302,N,01325.003,E,231.6,240.3,021020,000.0,W*7A
$GPGGA,101031.737,5231.258,N,01324.925,E,1,12,1.0,0.0,M,0.0,M,,*6F
$GPGSA,A,3,01,02,03,04,05,06,07,08,09,10,11,12,1.0,1.0,1.0*30
$GPRMC,101031.737,A,5231.258,N,01324.925,E,702.4,238.6,021020,000.0,W*74
$GPGGA,101032.737,5231.121,N,01324.699,E,1,12,1.0,0.0,M,0.0,M,,*69
$GPGSA,A,3,01,02,03,04,05,06,07,08,09,10,11,12,1.0,1.0,1.0*30
$GPRMC,101032.737,A,5231.121,N,01324.699,E,465.5,233.1,021020,000.0,W*7D
$GPGGA,101033.737,5231.020,N,01324.565,E,1,12,1.0,0.0,M,0.0,M,,*68
$GPGSA,A,3,01,02,03,04,05,06,07,08,09,10,11,12,1.0,1.0,1.0*30
$GPRMC,101033.737,A,5231.020,N,01324.565,E,610.6,227.5,021020,000.0,W*7E
$GPGGA,101034.737,5230.879,N,01324.410,E,1,12,1.0,0.0,M,0.0,M,,*69
$GPGSA,A,3,01,02,03,04,05,06,07,08,09,10,11,12,1.0,1.0,1.0*30
$GPRMC,101034.737,A,5230.879,N,01324.410,E,503.5,236.1,021020,000.0,W*79
$GPGGA,101035.737,5230.776,N,01324.256,E,1,12,1.0,0.0,M,0.0,M,,*6C
$GPGSA,A,3,01,02,03,04,05,06,07,08,09,10,11,12,1.0,1.0,1.0*30
$GPRMC,101035.737,A,5230.776,N,01324.256,E,264.5,233.7,021020,000.0,W*79
$GPGGA,101036.737,5230.719,N,01324.179,E,1,12,1.0,0.0,M,0.0,M,,*68
$GPGSA,A,3,01,02,03,04,05,06,07,08,09,10,11,12,1.0,1.0,1.0*30
$GPRMC,101036.737,A,5230.719,N,01324.179,E,535.3,252.2,021020,000.0,W*7A
$GPGGA,101037.737,5230.650,N,01323.962,E,1,12,1.0,0.0,M,0.0,M,,*60
$GPGSA,A,3,01,02,03,04,05,06,07,08,09,10,11,12,1.0,1.0,1.0*30
$GPRMC,101037.737,A,5230.650,N,01323.962,E,575.9,269.3,021020,000.0,W*75
$GPGGA,101038.737,5230.647,N,01323.700,E,1,12,1.0,0.0,M,0.0,M,,*63
$GPGSA,A,3,01,02,03,04,05,06,07,08,09,10,11,12,1.0,1.0,1.0*30
$GPRMC,101038.737,A,5230.647,N,01323.700,E,421.9,260.4,021020,000.0,W*78
$GPGGA,101039.737,5230.616,N,01323.514,E,1,12,1.0,0.0,M,0.0,M,,*61
$GPGSA,A,3,01,02,03,04,05,06,07,08,09,10,11,12,1.0,1.0,1.0*30
$GPRMC,101039.737,A,5230.616,N,01323.514,E,385.4,266.9,021020,000.0,W*75
$GPGGA,101040.737,5230.607,N,01323.339,E,1,12,1.0,0.0,M,0.0,M,,*66
$GPGSA,A,3,01,02,03,04,05,06,07,08,09,10,11,12,1.0,1.0,1.0*30
$GPRMC,101040.737,A,5230.607,N,01323.339,E,475.4,272.5,021020,000.0,W*73
$GPGGA,101041.737,5230.616,N,01323.123,E,1,12,1.0,0.0,M,0.0,M,,*6E
$GPGSA,A,3,01,02,03,04,05,06,07,08,09,10,11,12,1.0,1.0,1.0*30
$GPRMC,101041.737,A,5230.616,N,01323.123,E,645.2,313.4,021020,000.0,W*7B
$GPGGA,101042.737,5230.766,N,01322.963,E,1,12,1.0,0.0,M,0.0,M,,*66
$GPGSA,A,3,01,02,03,04,05,06,07,08,09,10,11,12,1.0,1.0,1.0*30
$GPRMC,101042.737,A,5230.766,N,01322.963,E,282.5,356.3,021020,000.0,W*7D
$GPGGA,101043.737,5230.845,N,01322.958,E,1,12,1.0,0.0,M,0.0,M,,*61
$GPGSA,A,3,01,02,03,04,05,06,07,08,09,10,11,12,1.0,1.0,1.0*30
$GPRMC,101043.737,A,5230.845,N,01322.958,E,328.8,334.9,021020,000.0,W*78
$GPGGA,101044.737,5230.933,N,01322.917,E,1,12,1.0,0.0,M,0.0,M,,*6D
$GPGSA,A,3,01,02,03,04,05,06,07,08,09,10,11,12,1.0,1.0,1.0*30
$GPRMC,101044.737,A,5230.933,N,01322.917,E,375.3,094.2,021020,000.0,W*75
$GPGGA,101045.737,5230.920,N,01323.087,E,1,12,1.0,0.0,M,0.0,M,,*6F
$GPGSA,A,3,01,02,03,04,05,06,07,08,09,10,11,12,1.0,1.0,1.0*30
$GPRMC,101045.737,A,5230.920,N,01323.087,E,150.6,082.0,021020,000.0,W*72
$GPGGA,101046.737,5230.929,N,01323.154,E,1,12,1.0,0.0,M,0.0,M,,*6A
$GPGSA,A,3,01,02,03,04,05,06,07,08,09,10,11,12,1.0,1.0,1.0*30
$GPRMC,101046.737,A,5230.929,N,01323.154,E,270.9,000.0,021020,000.0,W*73
$GPGGA,101047.737,5231.005,N,01323.154,E,1,12,1.0,0.0,M,0.0,M,,*6D
$GPGSA,A,3,01,02,03,04,05,06,07,08,09,10,11,12,1.0,1.0,1.0*30
$GPRMC,101047.737,A,5231.005,N,01323.154,E,270.9,000.0,021020,000.0,W*74
